City_ID,City,Lat,Long,Max Temp,Humidity,Cloudiness,Wind Speed,Country,Date
0,port hawkesbury,45.6169,-61.3485,56.59,94,100,6.91,CA,1665015594
1,east london,-33.0153,27.9116,64.67,83,100,7.34,ZA,1665015410
2,hambantota,6.1241,81.1185,78.15,82,100,16.69,LK,1665015594
3,punta arenas,-53.15,-70.9167,44.71,76,75,13.8,CL,1665015595
4,hilo,19.7297,-155.09,83.25,79,100,5.99,US,1665015596
5,saint-philippe,-21.3585,55.7679,67.59,76,43,11.27,RE,1665015596
6,nabire,-3.3667,135.4833,80.55,86,71,1.14,ID,1665015597
7,sancti spiritus,21.9297,-79.4425,75.13,79,25,6.44,CU,1665015598
8,gra liyia,35.0167,25.6833,70.12,50,1,11.99,GR,1665015598
9,jamestown,42.097,-79.2353,56.84,63,0,1.99,US,1665015598
10,college,64.8569,-147.8028,48.2,70,40,0.0,US,1665015599
11,leningradskiy,69.3833,178.4167,30.74,87,100,8.28,RU,1665015599
12,codrington,-38.2667,141.9667,60.13,85,99,12.5,AU,1665015600
13,hermanus,-34.4187,19.2345,48.79,84,0,12.08,ZA,1665015600
14,saint-georges,12.0564,-61.7485,80.28,89,75,20.71,GD,1665015601
15,nanortalik,60.1432,-45.2371,37.49,86,67,16.73,GL,1665015602
16,mar del plata,-38.0023,-57.5575,60.1,90,0,8.05,AR,1665015352
17,mataura,-46.1927,168.8643,45.48,94,96,11.01,NZ,1665015603
18,redlands,34.0556,-117.1825,92.79,43,4,8.01,US,1665015604
19,hobart,-42.8794,147.3294,55.26,71,75,16.11,AU,1665015428
20,new norfolk,-42.7826,147.0587,55.92,61,99,3.0,AU,1665015605
21,hovd,48.0056,91.6419,37.69,30,81,5.28,MN,1665015606
22,albany,42.6001,-73.9662,54.55,90,73,4.0,US,1665015452
23,flin flon,54.7682,-101.865,37.42,40,3,7.25,CA,1665015607
24,beloha,-25.1667,45.05,67.14,82,0,2.68,MG,1665015607
25,cooma,-36.2333,149.1333,49.77,100,100,10.36,AU,1665015608
26,cape town,-33.9258,18.4232,61.38,73,20,4.61,ZA,1665015405
27,sao filipe,14.8961,-24.4956,79.09,83,54,9.91,CV,1665015609
28,ola,59.5833,151.2833,28.15,56,97,4.7,RU,1665015609
29,castro,-24.7911,-50.0119,61.75,91,100,6.8,BR,1665015610
30,ushuaia,-54.8,-68.3,46.06,66,40,3.44,AR,1665015512
31,rikitea,-23.1203,-134.9692,68.97,66,12,21.54,PF,1665015611
32,saldanha,-33.0117,17.9442,56.3,78,5,4.09,ZA,1665015612
33,lebu,-37.6167,-73.65,52.11,85,100,8.16,CL,1665015612
34,bluff,-46.6,168.3333,46.8,63,96,23.15,NZ,1665015613
35,miri,4.4148,114.0089,78.94,94,20,3.44,MY,1665015613
36,avarua,-21.2078,-159.775,78.85,65,69,19.57,CK,1665015614
37,chumikan,54.7183,135.315,33.62,57,33,20.49,RU,1665015614
38,cabo san lucas,22.8909,-109.9124,87.1,65,0,11.5,MX,1665015431
39,broken hill,-31.95,141.4333,75.13,30,0,10.36,AU,1665015452
40,henties bay,-22.116,14.2845,54.01,94,16,8.1,NA,1665015616
41,yellowknife,62.456,-114.3525,37.92,75,75,16.11,CA,1665015325
42,kapaa,22.0752,-159.319,82.72,68,75,11.5,US,1665015617
43,kulhudhuffushi,6.6221,73.07,80.89,79,100,18.57,MV,1665015617
44,tiksi,71.6872,128.8694,21.74,83,97,15.86,RU,1665015618
45,hun,29.1268,15.9477,70.09,65,0,7.34,LY,1665015618
46,barrow,71.2906,-156.7887,35.62,80,100,11.5,US,1665015679
47,port hardy,50.6996,-127.4199,64.58,77,40,8.05,CA,1665015680
48,igarka,67.4667,86.5833,30.36,91,99,6.55,RU,1665015681
49,port alfred,-33.5906,26.891,62.98,87,98,12.26,ZA,1665015682
50,eureka,40.8021,-124.1637,64.2,78,23,3.0,US,1665015682
51,butaritari,3.0707,172.7902,82.09,72,19,14.05,KI,1665015683
52,tuktoyaktuk,69.4541,-133.0374,33.8,93,100,10.36,CA,1665015684
53,ribeira grande,38.5167,-28.7,70.36,84,99,4.9,PT,1665015684
54,maragogi,-9.0122,-35.2225,76.01,89,13,7.94,BR,1665015685
55,tianpeng,30.9866,103.9393,61.27,93,100,4.9,CN,1665015686
56,souillac,-20.5167,57.5167,70.18,83,40,9.22,MU,1665015686
57,havre-saint-pierre,50.2334,-63.5986,48.56,93,100,0.0,CA,1665015529
58,jian,27.1172,114.9793,63.25,76,99,7.38,CN,1665015687
59,sarahan,31.5167,77.8,53.46,73,15,3.76,IN,1665015687
60,alyangula,-13.8483,136.4192,85.5,61,59,6.73,AU,1665015688
61,fonte boa,-2.4959,-66.2662,80.65,70,96,2.46,BR,1665015688
62,saskylakh,71.9167,114.0833,10.71,97,89,5.68,RU,1665015689
63,hamilton,39.1834,-84.5333,65.25,59,0,3.44,US,1665015661
64,axim,4.8699,-2.2405,75.56,92,11,6.76,GH,1665015690
65,tasiilaq,65.6145,-37.6368,32.16,53,75,5.41,GL,1665015690
66,upernavik,72.7868,-56.1549,18.75,84,65,4.21,GL,1665015691
67,bang krathum,16.5783,100.3003,79.99,95,99,3.11,TH,1665015692
68,puerto cabello,10.4731,-68.0125,81.93,80,58,5.32,VE,1665015692
69,chuy,-33.6971,-53.4616,58.26,86,95,10.58,UY,1665015693
70,itarema,-2.9248,-39.9167,78.58,84,22,16.62,BR,1665015693
71,busselton,-33.65,115.3333,56.01,57,14,12.5,AU,1665015694
72,tura,25.5198,90.2201,71.74,97,96,2.55,IN,1665015694
73,hailar,49.2,119.7,30.54,53,34,7.02,CN,1665015695
74,vaini,-21.2,-175.2,76.12,85,100,10.02,TO,1665015696
75,nikolskoye,59.7035,30.7861,48.09,98,96,7.07,RU,1665015696
76,puerto ayora,-0.7393,-90.3518,67.55,91,78,5.99,EC,1665015697
77,khatanga,71.9667,102.5,1.58,100,90,2.48,RU,1665015698
78,mahebourg,-20.4081,57.7,70.09,83,40,9.22,MU,1665015699
79,sao jose da coroa grande,-8.8978,-35.1478,76.21,88,19,8.34,BR,1665015699
80,taoudenni,22.6783,-3.9836,94.66,11,2,7.05,ML,1665015700
81,kaduy,59.2,37.15,38.93,96,50,3.89,RU,1665015700
82,ponta delgada,37.7333,-25.6667,70.5,94,20,8.05,PT,1665015701
83,havre de grace,39.5493,-76.0916,61.32,95,99,4.38,US,1665015701
84,faanui,-16.4833,-151.75,78.46,73,26,25.23,PF,1665015702
85,wenatchee,47.4235,-120.3103,85.62,37,0,5.75,US,1665015702
86,port elizabeth,-33.918,25.5701,59.29,86,40,11.5,ZA,1665015703
87,arraial do cabo,-22.9661,-42.0278,69.46,85,65,13.31,BR,1665015703
88,stanislav,46.5691,32.1478,57.56,57,100,5.12,UA,1665015704
89,bambous virieux,-20.3428,57.7575,70.05,83,40,9.22,MU,1665015704
90,agadez,19.75,10.25,83.26,22,4,14.16,NE,1665015765
91,kushima,31.4583,131.2333,74.53,75,79,7.27,JP,1665015765
92,marmora,44.4583,7.094,55.67,87,16,5.44,IT,1665015766
93,angoche,-16.2325,39.9086,71.46,86,0,5.99,MZ,1665015767
94,kudahuvadhoo,2.6708,72.8944,81.07,78,97,19.19,MV,1665015768
95,talara,-4.5772,-81.2719,65.16,77,0,17.27,PE,1665015768
96,qaanaaq,77.484,-69.3632,5.77,70,32,7.63,GL,1665015769
97,airai,-8.9266,125.4092,68.34,67,95,3.13,TL,1665015769
98,pevek,69.7008,170.3133,31.14,92,100,9.17,RU,1665015770
99,katsuura,35.1333,140.3,59.02,86,100,23.38,JP,1665015771
100,bengkulu,-3.8004,102.2655,74.91,90,100,4.52,ID,1665015771
101,rio grande,-32.035,-52.0986,64.51,83,79,16.35,BR,1665015771
102,thompson,55.7435,-97.8558,32.16,64,75,9.22,CA,1665015772
103,salumbar,24.1333,74.05,77.25,65,89,4.07,IN,1665015772
104,deputatskiy,69.3,139.9,11.77,91,100,6.8,RU,1665015773
105,aasiaat,68.7098,-52.8699,17.74,85,39,7.27,GL,1665015774
106,chokurdakh,70.6333,147.9167,19.53,92,94,7.76,RU,1665015774
107,ugoofaaru,5.6667,73.0,81.5,78,100,18.77,MV,1665015775
108,longonjo,-12.9067,15.2533,64.13,75,69,4.03,AO,1665015775
109,buala,-8.145,159.5921,85.14,58,92,8.95,SB,1665015776
110,whitecourt,54.1502,-115.6855,45.64,87,75,10.36,CA,1665015776
111,victoria,22.2855,114.1577,84.38,78,54,8.99,HK,1665015777
112,quelimane,-17.8786,36.8883,75.15,94,75,4.61,MZ,1665015777
113,mahajanga,-15.7167,46.3167,68.02,94,0,4.61,MG,1665015778
114,kuantan,3.8077,103.326,77.11,94,20,0.0,MY,1665015778
115,sambava,-14.2667,50.1667,68.11,88,5,10.22,MG,1665015779
116,luau,-10.7073,22.2247,70.02,63,100,1.92,AO,1665015779
117,watsa,3.0372,29.5355,63.61,98,94,2.33,CD,1665015780
118,ascension,30.2169,-90.9001,79.03,67,40,0.0,US,1665015780
119,atuona,-9.8,-139.0333,77.61,69,4,17.29,PF,1665015781
120,boyuibe,-20.4167,-63.2833,80.64,51,12,11.14,BO,1665015781
121,esperance,-33.8667,121.9,55.15,61,63,19.44,AU,1665015783
122,ancud,-41.8697,-73.8203,49.26,95,100,27.34,CL,1665015783
123,hasaki,35.7333,140.8333,61.29,74,100,23.62,JP,1665015784
124,irtyshskiy,58.3333,68.1333,43.75,65,100,4.81,RU,1665015785
125,carnarvon,-24.8667,113.6333,62.98,53,17,25.32,AU,1665015785
126,mwene-ditu,-7.0,23.45,68.85,82,93,3.18,CD,1665015786
127,beringovskiy,63.05,179.3167,46.99,87,98,28.74,RU,1665015787
128,tral,33.9333,75.1,53.91,59,0,2.35,IN,1665015787
129,provideniya,64.3833,-173.3,39.36,100,100,35.99,RU,1665015788
130,bay roberts,47.5999,-53.2648,52.34,90,21,6.69,CA,1665015788
131,pisco,-13.7,-76.2167,60.85,77,0,3.44,PE,1665015789
132,muisne,0.6,-80.0333,75.04,80,76,8.61,EC,1665015850
133,mae hong son,19.3003,97.9685,73.54,94,75,2.3,TH,1665015850
134,vardo,70.3705,31.1107,42.78,81,75,20.71,NO,1665015851
135,cayenne,4.9333,-52.3333,78.84,83,20,3.44,GF,1665015851
136,saint-joseph,-21.3667,55.6167,66.58,76,29,11.41,RE,1665015852
137,mount gambier,-37.8333,140.7667,58.91,100,100,17.27,AU,1665015829
138,dikson,73.5069,80.5464,30.13,81,96,10.65,RU,1665015853
139,lerwick,60.1545,-1.1494,51.8,79,79,30.65,GB,1665015853
140,aykhal,66.0,111.5,18.27,96,90,8.59,RU,1665015854
141,dunedin,-45.8742,170.5036,38.95,94,99,18.72,NZ,1665015855
142,palauig,15.435,119.9045,83.82,69,81,2.21,PH,1665015855
143,osa,57.2829,55.4567,44.38,91,100,8.72,RU,1665015856
144,asekeyevo,53.5742,52.7972,50.9,45,100,5.14,RU,1665015856
145,constitucion,-35.3333,-72.4167,50.18,89,36,7.65,CL,1665015857
146,camocim,-2.9022,-40.8411,78.51,81,23,16.87,BR,1665015857
147,klaksvik,62.2266,-6.589,49.12,77,63,32.99,FO,1665015858
148,krasnoselkup,65.7,82.4667,32.36,94,100,5.99,RU,1665015859
149,pachino,36.7186,15.0907,69.71,60,31,3.67,IT,1665015859
150,sibu,2.3,111.8167,79.11,89,40,0.0,MY,1665015612
151,bredasdorp,-34.5322,20.0403,49.86,92,1,7.11,ZA,1665015860
152,ostrovnoy,68.0531,39.5131,47.5,93,99,13.04,RU,1665015861
153,husavik,66.0449,-17.3389,36.82,97,100,32.12,IS,1665015861
154,tamandare,-8.7597,-35.1047,75.94,89,25,7.67,BR,1665015862
155,iqaluit,63.7506,-68.5145,31.73,100,100,8.05,CA,1665015862
156,kachiry,53.0675,76.1036,47.88,53,95,7.56,KZ,1665015863
157,rabo de peixe,37.8,-25.5833,69.28,93,20,8.05,PT,1665015864
158,haines junction,60.7522,-137.5108,55.35,50,100,2.3,CA,1665015864
159,tailai,46.3833,123.4,39.34,33,0,5.39,CN,1665015865
160,maldonado,-34.6667,-54.9167,60.19,85,66,9.6,UY,1665015866
161,ambulu,-8.345,113.6058,78.28,83,100,4.65,ID,1665015866
162,agadir,30.4202,-9.5982,64.85,73,18,2.93,MA,1665015867
163,kimbe,-5.5502,150.1429,89.29,57,79,2.91,PG,1665015868
164,havelock,34.8791,-76.9013,66.18,87,36,4.81,US,1665015868
165,hithadhoo,-0.6,73.0833,82.13,74,99,20.24,MV,1665015869
166,luderitz,-26.6481,15.1594,54.27,78,7,15.84,NA,1665015869
167,namibe,-15.1961,12.1522,63.14,89,49,4.99,AO,1665015870
168,miles city,46.4083,-105.8406,72.57,43,0,8.05,US,1665015870
169,tucuman,-26.8241,-65.2226,71.6,43,100,13.8,AR,1665015614
170,kijang,35.2442,129.2139,64.13,79,100,7.2,KR,1665015871
171,pampilhosa,40.3377,-8.4268,59.02,88,44,1.74,PT,1665015871
172,nagyigmand,47.6409,18.0813,54.88,69,99,7.29,HU,1665015872
173,severo-kurilsk,50.6789,156.125,45.45,54,63,14.72,RU,1665015839
174,yulara,-25.2406,130.9889,76.95,19,0,3.8,AU,1665015873
175,snezhnogorsk,69.1933,33.2531,40.78,89,84,7.96,RU,1665015873
176,orel,52.9658,36.0803,46.53,95,96,9.66,RU,1665015874
177,vrangel,42.7297,133.0839,45.93,41,0,6.96,RU,1665015874
178,buraydah,26.326,43.975,72.05,17,0,5.48,SA,1665015935
179,mabaruma,8.2,-59.7833,75.29,94,100,2.64,GY,1665015936
180,lufilufi,-13.8745,-171.5986,87.58,77,42,20.94,WS,1665015936
181,cartagena,10.3997,-75.5144,82.02,78,40,2.3,CO,1665015937
182,kutum,14.2,24.6667,77.59,33,49,5.59,SD,1665015937
183,huinan,42.6225,126.2614,40.8,52,65,2.51,CN,1665015938
184,bridgewater,44.3835,-64.5155,59.11,93,100,13.8,CA,1665015939
185,anahuac,27.2333,-100.15,82.0,44,71,11.63,MX,1665015939
186,birjand,32.8663,59.2211,54.07,12,0,6.91,IR,1665015940
187,port keats,-14.25,129.55,87.17,59,69,4.81,AU,1665015940
188,georgetown,5.4112,100.3354,78.73,95,20,3.44,MY,1665015755
189,tuskegee,32.424,-85.6916,69.15,58,35,5.68,US,1665015941
190,indianola,41.3581,-93.5574,64.26,63,71,7.09,US,1665015942
191,sitka,57.0531,-135.33,57.09,100,100,10.36,US,1665015942
192,belaya gora,68.5333,146.4167,20.61,87,99,13.27,RU,1665015943
193,fukue,32.6881,128.8419,66.56,88,75,6.91,JP,1665015943
194,kjollefjord,70.9457,27.3465,44.65,81,100,10.36,NO,1665015688
195,ahuimanu,21.4447,-157.8378,85.75,68,75,9.22,US,1665015944
196,kenai,60.5544,-151.2583,56.03,66,75,14.97,US,1665015670
197,srednekolymsk,67.45,153.6833,21.67,93,100,24.43,RU,1665015945
198,neyshabur,36.2133,58.7958,58.14,20,0,2.15,IR,1665015946
199,nagorsk,59.3172,50.8078,43.2,94,100,6.44,RU,1665015946
200,kavaratti,10.5669,72.642,80.64,78,78,13.96,IN,1665015896
201,batticaloa,7.7102,81.6924,78.26,79,99,3.44,LK,1665015947
202,nizwa,22.9333,57.5333,77.7,48,41,1.66,OM,1665015947
203,punto fijo,11.6956,-70.1996,84.96,70,94,14.83,VE,1665015948
204,yumen,40.2833,97.2,40.87,54,3,3.02,CN,1665015949
205,comodoro rivadavia,-45.8667,-67.5,51.66,62,0,5.75,AR,1665015701
206,le mars,42.7942,-96.1656,68.58,72,0,0.0,US,1665015950
207,port lincoln,-34.7333,135.8667,63.27,65,1,7.92,AU,1665015950
208,maniitsoq,65.4167,-52.9,32.67,65,63,8.19,GL,1665015951
209,mayya,61.7333,130.2811,29.52,84,99,6.85,RU,1665015951
210,bertoua,4.5833,13.6833,66.83,99,93,2.13,CM,1665015952
211,guymon,36.6828,-101.4816,62.6,77,100,3.44,US,1665015952
212,bakaly,55.1789,53.8028,48.16,82,100,9.28,RU,1665015953
213,rocha,-34.4833,-54.3333,54.5,92,76,7.92,UY,1665015953
214,neiafu,-18.65,-173.9833,84.88,74,75,10.36,TO,1665015754
215,bethel,41.3712,-73.414,60.19,88,100,5.01,US,1665015732
216,tortoli,39.9256,9.6572,64.22,63,0,10.36,IT,1665015955
217,kyzyl-suu,42.3414,78.0056,43.81,50,81,6.04,KG,1665015955
218,mujiayingzi,42.1167,118.7833,40.84,24,99,2.46,CN,1665015956
219,bereda,43.2686,-7.5406,60.42,100,100,7.4,ES,1665015956
220,salalah,17.0151,54.0924,77.09,83,0,2.3,OM,1665015956
221,pontal do parana,-25.6533,-48.5128,65.86,94,98,3.33,BR,1665015957
222,ilulissat,69.2167,-51.1,24.82,68,20,4.61,GL,1665015958
223,minsk,53.9,27.5667,46.15,92,100,7.27,BY,1665015958
224,cookeville,36.1628,-85.5016,62.53,83,5,3.69,US,1665015877
225,ciudad bolivar,8.1222,-63.5497,79.09,83,88,5.28,VE,1665016019
226,monopoli,40.9559,17.2896,62.73,53,100,5.14,IT,1665016019
227,narsaq,60.9167,-46.05,37.62,88,92,5.79,GL,1665016020
228,hobyo,5.3505,48.5268,76.84,87,54,15.93,SO,1665016020
229,asfi,32.2994,-9.2372,68.18,84,52,9.78,MA,1665016021
230,whitehorse,60.7161,-135.0538,56.17,51,75,20.71,CA,1665015971
231,laredo,27.5064,-99.5075,84.49,48,0,3.44,US,1665016022
232,corn island,12.1694,-83.0418,83.86,75,100,10.67,NI,1665016023
233,nelson bay,-32.7167,152.15,66.25,91,100,14.0,AU,1665016023
234,la paz,-16.5,-68.15,53.58,23,20,13.8,BO,1665015828
235,nome,64.5011,-165.4064,43.16,75,40,13.8,US,1665016024
236,pontianak,-0.0333,109.3333,75.18,94,75,3.44,ID,1665015770
237,cap-aux-meules,47.3821,-61.8597,53.65,94,20,8.05,CA,1665015962
238,tarko-sale,64.9225,77.785,33.28,75,99,2.84,RU,1665016026
239,san patricio,28.017,-97.5169,82.54,47,44,12.17,US,1665016027
240,beipiao,41.7919,120.7792,44.28,28,100,6.24,CN,1665016027
241,port augusta,-32.5,137.7667,74.39,41,0,9.24,AU,1665016028
242,san luis,-33.295,-66.3356,51.46,77,100,8.25,AR,1665016029
243,alta floresta,-9.8756,-56.0861,77.94,61,97,3.22,BR,1665016030
244,touros,-5.1989,-35.4608,77.34,85,0,12.19,BR,1665016031
245,maba,24.6841,113.5984,74.34,73,48,3.89,CN,1665016032
246,khandyga,62.6667,135.6,18.14,72,37,2.8,RU,1665016033
247,fort-shevchenko,44.5086,50.263,65.14,54,62,14.0,KZ,1665016033
248,kiunga,-6.1219,141.2906,79.74,90,100,1.45,PG,1665016034
249,kumbo,6.2,10.6667,58.41,93,96,2.28,CM,1665016035
250,broome,42.2506,-75.833,55.65,78,17,3.53,US,1665016036
251,mirandopolis,-21.1336,-51.1017,76.89,63,55,7.74,BR,1665016037
252,reinosa,42.9996,-4.138,53.46,93,27,5.3,ES,1665016037
253,ca mau,9.1769,105.15,77.72,92,100,4.92,VN,1665016038
254,kodiak,57.79,-152.4072,53.11,87,100,16.11,US,1665016040
255,asau,46.4333,26.4,45.52,81,99,6.08,RO,1665016041
256,honiara,-9.4333,159.95,87.69,51,98,7.29,SB,1665016041
257,vila franca do campo,37.7167,-25.4333,70.2,87,98,11.52,PT,1665015907
258,saint-jean-de-braye,47.913,1.9771,59.04,75,0,11.5,FR,1665016043
259,vestmannaeyjar,63.4427,-20.2734,45.32,70,91,13.49,IS,1665016044
260,dalvik,65.9702,-18.5286,44.53,97,100,10.65,IS,1665016044
261,clonakilty,51.6231,-8.8706,50.09,80,2,18.99,IE,1665016045
262,atasu,48.6814,71.6433,44.17,41,13,6.04,KZ,1665016045
263,santa maria,-29.6842,-53.8069,69.1,60,75,5.75,BR,1665016046
264,svetlaya,46.5389,138.3297,43.56,39,3,11.72,RU,1665016047
265,paamiut,61.994,-49.6678,37.22,83,68,9.1,GL,1665016048
266,basco,20.4487,121.9702,82.65,77,27,18.03,PH,1665016049
267,teknaf,20.8624,92.3058,77.11,89,74,3.49,BD,1665016049
268,manta,-0.95,-80.7333,73.18,78,75,10.36,EC,1665016050
269,waipawa,-41.4122,175.5153,39.74,76,91,21.12,NZ,1665016050
270,hofn,64.2539,-15.2082,42.46,58,5,11.99,IS,1665016051
271,glendive,47.1053,-104.7125,65.82,46,0,8.05,US,1665016052
272,esso,55.9333,158.7,32.88,79,75,11.79,RU,1665016112
273,naze,28.3667,129.4833,79.72,71,42,9.86,JP,1665016113
274,mananjary,-21.2167,48.3333,66.45,92,17,6.78,MG,1665016113
275,walvis bay,-22.9575,14.5053,52.75,87,4,6.91,NA,1665016114
276,longyearbyen,78.2186,15.6401,39.04,75,20,14.97,SJ,1665016114
277,gobabis,-22.45,18.9667,70.32,10,68,10.67,NA,1665016115
278,tateyama,34.9833,139.8667,59.09,94,75,10.36,JP,1665016116
279,oxnard,34.1975,-119.177,90.01,86,100,11.5,US,1665015889
280,baixo guandu,-19.5189,-41.0158,73.29,85,72,7.65,BR,1665016116
281,te anau,-45.4167,167.7167,40.5,77,95,2.44,NZ,1665016117
282,karatau,43.1667,70.4667,42.8,39,0,4.0,KZ,1665016117
283,poum,-20.2333,164.0167,74.97,58,81,8.68,NC,1665016118
284,nouadhibou,20.931,-17.0347,84.18,45,34,19.57,MR,1665016118
285,jieshi,22.8134,115.8257,79.27,76,42,15.75,CN,1665016119
286,ternate,0.8,127.4,82.2,73,100,3.09,ID,1665016119
287,saint george,37.1041,-113.5841,88.39,20,0,5.01,US,1665015995
288,road town,18.4167,-64.6167,84.29,84,40,8.05,VG,1665016120
289,xuddur,4.1213,43.8894,71.98,82,70,13.06,SO,1665016120
290,vanimo,-2.6741,141.3028,82.04,82,100,7.25,PG,1665016121
291,pyshchug,58.8873,45.7134,44.08,96,98,1.54,RU,1665016122
292,boende,-0.2167,20.8667,68.32,94,100,1.3,CD,1665016122
293,constantine,36.365,6.6147,62.01,82,20,1.14,DZ,1665016123
294,sicamous,50.8331,-118.9856,72.19,36,14,2.24,CA,1665016123
295,westport,41.1415,-73.3579,61.45,89,100,10.0,US,1665015917
296,surt,31.2089,16.5887,75.0,63,0,11.41,LY,1665016124
297,murgab,37.4966,61.9714,49.87,57,0,4.61,TM,1665016125
298,geraldton,-28.7667,114.6,61.21,55,75,8.05,AU,1665016125
299,guarapari,-20.6667,-40.4975,71.17,93,65,2.53,BR,1665016126
300,iralaya,15.0,-83.2333,79.32,86,100,9.28,HN,1665016127
301,berlevag,70.8578,29.0864,42.75,75,100,9.22,NO,1665016127
302,ponta do sol,32.6667,-17.1,68.72,80,82,5.57,PT,1665016128
303,neryungri,56.6709,124.6491,24.98,88,100,12.5,RU,1665016128
304,sitio novo do tocantins,-5.5183,-47.4611,87.64,31,42,4.25,BR,1665016129
305,matara,5.9485,80.5353,76.73,89,100,12.24,LK,1665016129
306,rodrigues alves,-7.738,-72.6509,81.14,64,50,4.16,BR,1665016130
307,saint-augustin,51.226,-58.6502,50.7,92,72,8.46,CA,1665016130
308,south gate,33.9547,-118.212,92.52,75,0,11.5,US,1665016131
309,shieli,44.1667,66.75,49.87,27,0,14.34,KZ,1665016131
310,buritama,-21.0661,-50.1472,81.66,45,60,1.86,BR,1665016132
311,de aar,-30.6497,24.0123,65.62,12,100,4.5,ZA,1665016132
312,kavieng,-2.5744,150.7967,84.7,70,96,13.73,PG,1665016133
313,chilca,-12.5211,-76.7372,59.76,86,65,8.03,PE,1665016133
314,teya,60.3778,92.6267,31.59,98,100,3.51,RU,1665016134
315,yairipok,24.6667,94.0667,66.0,98,95,0.85,IN,1665016134
316,lavrentiya,65.5833,-171.0,38.7,92,100,31.23,RU,1665016135
317,katobu,-4.9408,122.5276,80.73,81,100,2.3,ID,1665016135
318,vostok,46.4856,135.8833,34.45,47,15,11.16,RU,1665016136
319,pinheiro,-2.5214,-45.0825,77.63,77,3,6.46,BR,1665016196
320,torbay,47.6666,-52.7314,52.27,86,0,16.11,CA,1665016197
321,ahipara,-35.1667,173.1667,52.9,63,98,18.19,NZ,1665016198
322,gusinoye ozero,51.1144,106.2614,31.53,64,57,0.49,RU,1665016198
323,ashcroft,50.7165,-121.2859,79.14,29,18,2.24,CA,1665016199
324,cidreira,-30.1811,-50.2056,63.55,79,78,21.61,BR,1665016199
325,ridgecrest,35.6225,-117.6709,95.65,9,0,6.91,US,1665016092
326,tecoanapa,16.5167,-98.75,81.64,76,9,6.35,MX,1665016200
327,catamarca,-28.4696,-65.7852,61.59,73,97,8.01,AR,1665016201
328,prainha,-1.8,-53.48,83.26,51,42,3.15,BR,1665016201
329,potsdam,52.3989,13.0657,60.49,91,25,1.99,DE,1665016202
330,amga,60.8953,131.9608,29.03,68,100,7.23,RU,1665016204
331,hengshui,37.7322,115.7011,54.63,54,98,5.86,CN,1665016204
332,wufeng,27.45,104.8333,51.98,95,100,3.4,CN,1665016205
333,skjervoy,70.0311,20.9714,42.8,89,100,21.9,NO,1665016206
334,okha,53.5739,142.9478,36.45,74,90,20.51,RU,1665016207
335,samarai,-10.6167,150.6667,82.22,79,95,10.07,PG,1665016207
336,saint-francois,46.4154,3.9054,55.67,88,0,3.44,FR,1665016182
337,victor harbor,-35.5667,138.6167,68.0,72,0,9.57,AU,1665016208
338,maceio,-9.6658,-35.7353,74.64,94,0,4.61,BR,1665015913
339,gravdal,68.1214,13.5031,46.53,84,100,18.3,NO,1665016209
340,ulkan,57.243,107.3223,31.01,66,67,3.62,RU,1665016210
341,lata,40.1629,-8.3327,57.92,84,33,2.01,PT,1665016049
342,hami,42.8,93.45,53.01,35,0,6.51,CN,1665016211
343,novobirilyussy,56.9514,90.6661,33.62,98,100,5.84,RU,1665016212
344,carnduff,49.1667,-101.8009,47.71,60,100,17.54,CA,1665016212
345,emerald,-23.5333,148.1667,74.34,61,41,12.03,AU,1665016213
346,leirvik,59.7798,5.5005,54.63,74,0,17.13,NO,1665016213
347,livingston,55.9029,-3.5226,49.95,87,40,18.41,GB,1665016103
348,arlit,18.7369,7.3853,88.79,18,3,11.14,NE,1665016214
349,qaqortoq,60.7167,-46.0333,36.63,85,90,17.98,GL,1665016152
350,imbituba,-28.24,-48.6703,64.06,87,100,10.4,BR,1665016208
351,coquimbo,-29.9533,-71.3436,55.13,94,0,8.05,CL,1665016215
352,mantua,45.1667,10.7833,60.04,90,35,2.01,IT,1665016216
353,norman wells,65.282,-126.8329,48.24,61,75,12.66,CA,1665016217
354,olafsvik,64.8945,-23.7142,44.44,71,100,11.45,IS,1665016218
355,lehututu,-23.9667,21.8667,71.19,20,5,6.93,BW,1665016218
356,clyde river,70.4692,-68.5914,25.03,80,100,19.57,CA,1665016219
357,brzeg,50.8608,17.4674,58.71,79,71,8.93,PL,1665016219
358,tuatapere,-46.1333,167.6833,44.53,80,87,14.58,NZ,1665016220
359,gombe,10.2897,11.1673,76.96,73,100,0.89,NG,1665016221
360,roald,62.5833,6.1333,54.75,62,20,14.97,NO,1665016221
361,kahta,37.7855,38.6237,70.97,44,8,1.32,TR,1665016222
362,hinton,53.4001,-117.5857,52.65,67,28,3.44,CA,1665016222
363,piriyapatna,12.3397,76.0992,65.39,97,100,4.34,IN,1665016223
364,huarmey,-10.0681,-78.1522,61.43,82,2,10.56,PE,1665016284
365,los llanos de aridane,28.6585,-17.9182,74.12,67,20,8.05,ES,1665016284
366,raudeberg,61.9875,5.1352,52.47,27,100,39.35,NO,1665016285
367,moose factory,51.2585,-80.6094,46.4,93,100,11.5,CA,1665016285
368,goderich,43.7501,-81.7165,60.91,88,100,2.3,CA,1665016286
369,cockburn town,21.4612,-71.1419,83.44,76,99,11.72,TC,1665016286
370,tandil,-37.3217,-59.1332,53.69,65,100,6.8,AR,1665015987
371,dali,25.7,100.1833,61.9,91,98,5.01,CN,1665016287
372,tripoli,32.8752,13.1875,72.59,61,0,11.99,LY,1665016288
373,aklavik,68.2191,-135.0107,34.36,90,100,14.41,CA,1665016288
374,jalu,29.0331,21.5482,71.87,47,2,10.89,LY,1665016289
375,vanavara,60.34,102.2797,29.25,85,91,2.06,RU,1665016289
376,sarangani,5.4033,125.4636,84.07,75,22,15.37,PH,1665016290
377,alofi,-19.0595,-169.9187,82.29,65,75,12.66,NU,1665016290
378,majholi,23.5,79.9167,73.47,95,55,1.63,IN,1665016291
379,talnakh,69.4865,88.3972,23.4,97,100,3.76,RU,1665016291
380,calama,-22.4667,-68.9333,55.89,7,0,11.5,CL,1665016292
381,half moon bay,37.4636,-122.4286,85.57,66,0,16.11,US,1665016050
382,maine-soroa,13.2114,12.0241,83.26,52,93,7.09,NE,1665016292
383,karratha,-20.7377,116.8463,82.4,29,0,13.53,AU,1665016293
384,progreso,21.2833,-89.6667,81.1,70,3,10.49,MX,1665016293
385,bozeman,45.6796,-111.0386,72.82,40,0,0.0,US,1665016294
386,bathsheba,13.2167,-59.5167,81.21,78,75,13.8,BB,1665016295
387,saint-pierre,-21.3393,55.4781,67.68,68,0,8.05,RE,1665016295
388,charlottesville,38.0293,-78.4767,60.82,94,0,2.71,US,1665016295
389,mamakan,57.8161,114.0028,27.27,79,91,3.36,RU,1665016296
390,guerrero negro,27.9769,-114.0611,71.73,73,0,11.63,MX,1665016297
391,zhanaozen,43.3,52.8,57.92,17,44,12.64,KZ,1665016297
392,aswan,24.0934,32.907,86.2,26,49,12.86,EG,1665016298
393,viesca,25.35,-102.8,77.18,44,100,9.82,MX,1665016298
394,clayton,33.5335,-84.3666,69.46,55,0,3.44,US,1665016288
395,killam,52.7834,-111.8518,49.95,57,100,10.36,CA,1665016299
396,jacqueville,5.2052,-4.4146,75.9,91,39,9.06,CI,1665016299
397,mitsamiouli,-11.3847,43.2844,74.41,77,4,4.23,KM,1665016300
398,ereymentau,51.6199,73.1033,44.29,59,91,6.4,KZ,1665016301
399,kingaroy,-26.5333,151.8333,67.96,55,99,7.16,AU,1665016301
400,yugorsk,61.3133,63.3319,40.48,82,83,4.94,RU,1665016302
401,vidim,56.4088,103.1106,31.91,96,100,4.45,RU,1665016302
402,andapa,-14.65,49.65,59.13,97,5,2.71,MG,1665016303
403,tabuk,17.4189,121.4443,81.14,78,91,3.0,PH,1665016304
404,muzaffarpur,26.1167,85.4,76.42,93,100,5.12,IN,1665016304
405,praia da vitoria,38.7333,-27.0667,68.76,94,75,15.7,PT,1665016305
406,aloleng,16.1307,119.7824,84.09,70,100,8.23,PH,1665016305
407,mavrovi anovi,41.7025,20.7564,40.53,68,58,1.9,MK,1665016306
408,morondava,-20.2833,44.2833,75.15,84,11,5.97,MG,1665016307
409,fairbanks,64.8378,-147.7164,48.22,70,20,0.0,US,1665016021
410,caravelas,-17.7125,-39.2481,74.97,83,29,7.4,BR,1665016308
411,lensk,60.7253,114.9278,31.73,74,85,12.03,RU,1665016369
412,lagoa,39.05,-27.9833,69.13,84,100,15.39,PT,1665016370
413,mount isa,-20.7333,139.5,83.97,54,5,10.36,AU,1665016261
414,libreville,0.3925,9.4537,76.6,87,100,8.77,GA,1665016370
415,nioro,13.35,-15.75,76.8,90,8,6.76,GM,1665016371
416,adrar,20.5022,-10.0711,89.8,15,2,17.6,MR,1665016371
417,manapparai,10.6,78.4167,76.26,83,100,3.8,IN,1665016372
418,bambanglipuro,-7.95,110.2833,77.88,82,100,10.51,ID,1665016372
419,abha,18.2164,42.5053,68.25,24,40,10.36,SA,1665016373
420,micheweni,-4.9667,39.8333,73.9,86,18,9.53,TZ,1665016373
421,boshnyakovo,49.6333,142.1667,38.41,61,79,15.88,RU,1665016374
422,makakilo city,21.3469,-158.0858,84.56,63,75,10.36,US,1665016374
423,channel-port aux basques,47.5702,-59.1367,51.75,85,100,8.08,CA,1665016375
424,white oak,39.2131,-84.5994,63.19,61,0,3.44,US,1665016375
425,bontang,0.1333,117.5,78.19,84,100,3.15,ID,1665016376
426,port blair,11.6667,92.75,75.24,94,75,0.0,IN,1665016229
427,kahului,20.8947,-156.47,87.82,68,40,18.41,US,1665016210
428,linjiang,41.8069,126.9078,46.09,41,100,1.07,CN,1665016377
429,kyaikto,17.3,97.0167,79.05,86,88,3.13,MM,1665016377
430,praia,14.9215,-23.5087,79.34,89,20,3.44,CV,1665016224
431,spornoye,50.8448,37.2913,45.61,91,100,7.96,RU,1665016378
432,griffith,41.5284,-87.4237,68.9,49,0,0.0,US,1665016379
433,torbat-e jam,35.244,60.6225,54.32,15,0,12.46,IR,1665016379
434,monterey,36.2505,-121.2516,86.18,31,0,8.75,US,1665016380
435,magistralnyy,56.1725,107.4458,30.56,66,23,4.25,RU,1665016380
436,lac du bonnet,50.2536,-96.0612,43.74,71,93,15.41,CA,1665016381
437,manggar,-2.8833,108.2667,80.89,81,83,5.68,ID,1665016381
438,coahuayana,18.7333,-103.6833,78.35,88,59,2.15,MX,1665016382
439,kerchevskiy,59.946,56.2884,42.76,74,100,8.08,RU,1665016383
440,bairiki,1.3292,172.9752,86.0,70,40,11.5,KI,1665016384
441,columbus,39.9612,-82.9988,63.99,61,0,4.61,US,1665016208
442,acheng,45.5454,126.977,43.36,40,5,9.95,CN,1665016385
443,traverse city,44.7631,-85.6206,64.35,57,40,4.61,US,1665016211
444,tabory,58.5198,64.5495,42.51,78,100,4.07,RU,1665016386
445,korla,41.7597,86.1469,53.29,36,46,2.1,CN,1665016386
446,batagay-alyta,67.8006,130.4114,21.72,79,95,10.09,RU,1665016387
447,fare,-16.7,-151.0167,77.9,73,8,25.61,PF,1665016388
448,kondagaon,19.6,81.6667,69.82,97,82,4.72,IN,1665016388
449,meulaboh,4.1363,96.1285,75.34,90,100,3.69,ID,1665016389
450,havre,49.5833,0.3333,58.77,72,75,18.41,FR,1665016389
451,northam,51.0333,-4.2167,55.62,72,0,16.42,GB,1665016390
452,koroni,36.8,21.95,58.71,53,42,6.82,GR,1665016390
453,tiarei,-17.5333,-149.3333,84.22,71,32,26.24,PF,1665016391
454,port macquarie,-31.4333,152.9167,58.53,92,100,3.69,AU,1665016391
455,castrillon,43.3979,-6.7922,59.47,99,100,5.26,ES,1665016392
456,tilichiki,60.4667,166.1,37.53,73,42,26.57,RU,1665016392
457,cherskiy,68.75,161.3,28.6,96,100,9.64,RU,1665016453
458,gryazovets,58.88,40.2525,44.55,95,100,5.55,RU,1665016453
459,sinnamary,5.3833,-52.95,79.54,85,6,10.38,GF,1665016454
460,yar-sale,66.8333,70.8333,32.79,91,100,11.3,RU,1665016455
461,nicoya,10.1483,-85.452,76.37,89,100,2.48,CR,1665016455
462,gazanjyk,39.2446,55.5154,57.16,13,0,12.39,TM,1665016456
463,trapani,37.8333,12.6667,67.28,82,0,4.61,IT,1665016456
464,vlahita,46.35,25.5167,39.11,90,100,0.65,RO,1665016457
465,wajid,3.8093,43.2471,72.9,81,58,16.71,SO,1665016457
466,shebunino,46.4339,141.8603,46.17,52,90,20.15,RU,1665016458
467,rome,34.257,-85.1647,63.01,57,0,0.0,US,1665016261
468,inhambane,-23.865,35.3833,70.16,92,0,7.45,MZ,1665016458
469,hirara,24.8,125.2833,82.26,78,40,17.27,JP,1665016459
470,verkhoyansk,67.5447,133.385,23.43,90,100,5.23,RU,1665016459
471,iskateley,67.6803,53.1512,43.39,97,100,7.05,RU,1665016460
472,awjilah,29.1081,21.2869,72.64,45,12,12.15,LY,1665016460
473,antalaha,-14.9003,50.2788,66.81,88,1,6.62,MG,1665016461
474,kambove,-10.8764,26.5969,63.63,25,67,5.26,CD,1665016461
475,bahia blanca,-38.7196,-62.2724,56.97,71,98,8.55,AR,1665016210
476,maningrida,-12.0667,134.2667,89.31,51,45,9.4,AU,1665016462
477,kajaani,64.2273,27.7285,48.25,93,100,12.66,FI,1665016214
478,harper,4.375,-7.7169,75.94,91,100,5.88,LR,1665016463
479,scarborough,54.2797,-0.4044,50.65,82,0,7.0,GB,1665016438
480,kruisfontein,-34.0033,24.7314,52.88,89,0,5.5,ZA,1665016463
481,portree,57.4129,-6.1942,51.53,83,92,24.49,GB,1665016464
482,bundaberg,-24.85,152.35,74.21,69,33,3.0,AU,1665016334
483,nador,35.174,-2.9287,70.05,94,20,1.14,MA,1665016465
484,alenquer,-1.9417,-54.7383,84.52,48,54,3.24,BR,1665016465
485,pinerovka,51.562,43.0689,47.26,84,78,10.92,RU,1665016466
486,pa sang,18.5262,98.9394,78.78,67,39,1.59,TH,1665016466
487,fiumicino,41.7675,12.2291,68.77,18,45,5.44,IT,1665016466
488,asyut,27.181,31.1837,74.61,52,0,10.78,EG,1665016467
489,sioux lookout,50.1001,-91.917,50.07,93,75,4.61,CA,1665016468
490,dryden,49.7833,-92.7503,50.29,93,75,5.75,CA,1665016216
491,dakar,14.6937,-17.4441,82.53,89,20,13.8,SN,1665016468
492,akdepe,42.0551,59.3788,48.29,26,0,8.23,TM,1665016469
493,bamiantong,44.9333,130.5333,43.95,30,0,8.84,CN,1665016469
494,khash,28.2211,61.2158,60.26,21,0,2.53,IR,1665016470
495,steinkjer,64.193,11.3851,43.21,84,100,11.54,NO,1665016471
496,kasongo-lunda,-6.4667,16.8167,67.51,96,62,0.67,CD,1665016471
497,portobelo,9.55,-79.65,79.11,82,89,1.16,PA,1665016472
498,kindersley,51.4668,-109.1682,48.22,43,100,14.97,CA,1665016472
499,porangatu,-13.4408,-49.1486,88.09,32,100,3.69,BR,1665016473
500,pitimbu,-7.4706,-34.8086,77.59,85,9,10.13,BR,1665016473
501,bilibino,68.0546,166.4372,24.55,92,100,3.4,RU,1665016474
502,beyneu,45.3167,55.2,53.55,40,83,12.93,KZ,1665016474
503,pochutla,15.7432,-96.4661,74.77,88,8,4.59,MX,1665016474
504,shenzhen,22.5455,114.0683,85.95,72,7,7.43,CN,1665016475
505,jumla,29.2747,82.1838,56.32,94,100,2.64,NP,1665016536
506,miguel auza,24.2933,-103.4503,59.9,78,98,2.42,MX,1665016536
507,rio cuarto,-33.1307,-64.3499,52.47,100,75,1.14,AR,1665016537
508,kununurra,-15.7667,128.7333,85.98,58,40,6.91,AU,1665016538
509,mezen,65.8522,44.24,44.44,94,100,4.36,RU,1665016538
510,sola,-13.8833,167.55,84.87,79,75,9.22,VU,1665016539
511,sungairaya,0.7,108.9,76.03,92,100,4.41,ID,1665016539
512,nerchinsk,51.9833,116.5833,32.68,50,0,5.84,RU,1665016540
513,chara,56.9064,118.2631,23.85,63,94,3.06,RU,1665016540
514,menongue,-14.6585,17.691,64.58,25,47,4.72,AO,1665016541
515,yinchuan,38.4681,106.2731,53.42,36,4,1.5,CN,1665016541
516,kieta,-6.2167,155.6333,83.79,70,70,9.48,PG,1665016542
517,xapuri,-10.6517,-68.5044,77.36,77,41,2.35,BR,1665016542
518,cartago,4.7464,-75.9117,74.95,95,100,1.86,CO,1665016543
519,sokoto,13.0609,5.239,79.59,65,90,8.59,NG,1665016543
520,khor,47.8861,134.9464,42.28,46,7,16.58,RU,1665016544
521,coihaique,-45.5752,-72.0662,39.88,93,100,8.14,CL,1665016385
522,olinda,-8.0089,-34.8553,78.53,78,40,5.75,BR,1665016545
523,acarau,-2.8856,-40.12,78.6,84,16,17.34,BR,1665016341
524,rio branco do sul,-25.19,-49.3142,59.32,93,100,3.94,BR,1665016545
525,shenjiamen,29.9576,122.298,67.33,76,100,13.53,CN,1665016546
526,sovetskiy,61.3614,63.5842,40.23,84,88,5.06,RU,1665016546
527,ardmore,34.1743,-97.1436,80.65,31,0,4.61,US,1665016547
528,yenisehir,40.2644,29.6531,44.65,100,40,2.3,TR,1665016407
529,conakry,9.538,-13.6773,77.07,94,20,4.61,GN,1665016467
530,camacha,33.0833,-16.3333,67.42,68,40,12.66,PT,1665016548
531,prado,-17.3411,-39.2208,75.09,84,35,9.86,BR,1665016549
532,homer,59.6425,-151.5483,57.09,69,75,11.99,US,1665016516
533,sur,22.5667,59.5289,81.28,56,0,5.01,OM,1665016550
534,kindu,-2.95,25.95,68.14,97,99,1.63,CD,1665016551
535,mahibadhoo,3.7833,72.9667,81.1,78,100,18.41,MV,1665016551
536,derzhavinsk,51.1,66.3167,47.82,33,100,7.92,KZ,1665016552
537,leiyang,26.4024,112.8591,55.17,81,100,6.82,CN,1665016552
538,koslan,63.4564,48.8989,42.44,97,100,3.94,RU,1665016552
539,las vegas,36.175,-115.1372,91.27,17,20,1.99,US,1665016469
540,sao joao da barra,-21.6403,-41.0511,71.69,88,95,8.66,BR,1665016553
541,rognan,67.0953,15.3878,50.14,91,100,8.1,NO,1665016554
542,namatanai,-3.6667,152.4333,84.63,69,89,8.1,PG,1665016554
543,boa vista,2.8197,-60.6733,80.58,74,75,5.75,BR,1665016297
544,san cristobal,7.7669,-72.225,71.78,97,100,1.68,VE,1665016555
545,isangel,-19.55,169.2667,80.71,78,75,9.22,VU,1665016556
546,dzemul,21.2,-89.3,81.05,77,0,5.64,MX,1665016556
547,francia,15.85,-85.5833,80.58,93,100,2.24,HN,1665016557
548,muravlenko,63.7898,74.523,31.14,85,99,6.93,RU,1665016519
549,zinacantan,16.75,-92.7,55.2,97,88,5.59,MX,1665016557
550,maymyo,22.0333,96.4667,68.5,92,8,2.62,MM,1665016558
551,puttur,12.7667,75.2167,78.91,99,100,1.99,IN,1665016558
552,bardiyah,31.7561,25.0865,70.9,61,0,10.87,LY,1665016559
553,lakatoro,-16.0999,167.4164,81.9,74,41,15.41,VU,1665016559
554,nhulunbuy,-12.2333,136.7667,88.41,58,20,13.8,AU,1665016620
555,nemuro,43.3236,145.575,52.27,63,100,17.94,JP,1665016620
556,kurgan,55.45,65.3333,47.17,38,100,7.54,RU,1665016621
557,pangody,65.85,74.4859,31.23,89,29,7.29,RU,1665016621
558,lompoc,34.6391,-120.4579,86.02,86,100,8.05,US,1665016622
559,mogadishu,2.0371,45.3438,76.96,88,11,12.71,SO,1665016622
560,teeli,51.0333,90.2333,38.84,47,100,2.15,RU,1665016623
561,arona,28.0996,-16.681,73.9,85,0,6.91,ES,1665016624
562,sibolga,1.7427,98.7792,75.42,86,100,3.47,ID,1665016624
563,margate,51.3813,1.3862,53.31,77,0,4.0,GB,1665016625
564,grindavik,63.8424,-22.4338,41.47,87,75,3.44,IS,1665016625
565,hammerfest,70.6634,23.6821,43.25,75,100,6.91,NO,1665016626
566,marabba,12.35,32.1833,75.6,72,91,9.1,SD,1665016626
567,fougamou,-1.2154,10.5838,73.18,98,100,2.37,GA,1665016627
568,nyagan,62.1406,65.3936,41.09,94,96,4.34,RU,1665016329
569,hokitika,-42.7167,170.9667,46.74,36,0,8.99,NZ,1665016628
570,kidodi,-7.6036,37.0044,65.95,91,28,0.54,TZ,1665016628
